{
  "type": "FeatureCollection",

  "features": [
{ "type": "Feature", "id": 0, "properties": {"TYPE":"Temporary Evacuation Shelter", "NAME": "Nagoya University", "TEL": "","ADDRESS1": "65 Maitsuruchou, Showa-ku", "ADDRES2": null, "CITY": "Nagoya-shi", "ZIP": 4668550.0 }, "geometry": { "type": "Point", "coordinates": [ 136.971217, 35.149607 ] }},
{"type": "Feature", "id": 0, "properties": { "TYPE":"Evacuation Shelter", "NAME":"千種小学校", "TEL": null, "ADDRESS1": "愛知県名古屋市千種区千種3-2-5"}, "geometry": { "type": "Point", "coordinates": [136.93398,35.16242] } },
{"type": "Feature", "id": 0, "properties": { "TYPE":"Evacuation Shelter", "NAME":"今池中学校", "TEL": null, "ADDRESS1": "愛知県名古屋市千種区今池3-19-1"}, "geometry": { "type": "Point", "coordinates": [136.93312,35.16563] } },
{"type": "Feature", "id": 0, "properties": { "TYPE":"Evacuation Shelter", "NAME":"千種コミュニティセンター", "TEL": null, "ADDRESS1": "愛知県名古屋市千種区千種3-2-11"}, "geometry": { "type": "Point", "coordinates": [136.93398,35.16242] } },
{"type": "Feature", "id": 0, "properties": { "TYPE":"Evacuation Shelter", "NAME":"千石小学校", "TEL": null, "ADDRESS1": "愛知県名古屋市千種区千種1-1-52"}, "geometry": { "type": "Point", "coordinates": [136.9288,35.16574] } },
{"type": "Feature", "id": 0, "properties": { "TYPE":"Evacuation Shelter", "NAME":"千石コミュニティセンター", "TEL": null, "ADDRESS1": "愛知県名古屋市千種区千種2-6-16"}, "geometry": { "type": "Point", "coordinates": [136.9277,35.16276] } },
{"type": "Feature", "id": 0, "properties": { "TYPE":"Evacuation Shelter", "NAME":"名古屋工業大学体育館", "TEL": null, "ADDRESS1": "愛知県名古屋市千種区吹上1-7-2"}, "geometry": { "type": "Point", "coordinates": [136.92447,35.15847] } },
{"type": "Feature", "id": 0, "properties": { "TYPE":"Evacuation Shelter", "NAME":"内山小学校", "TEL": null, "ADDRESS1": "愛知県名古屋市千種区内山1-4-15"}, "geometry": { "type": "Point", "coordinates": [136.93777,35.17402] } },
{"type": "Feature", "id": 0, "properties": { "TYPE":"Evacuation Shelter", "NAME":"内山コミュニティセンター", "TEL": null, "ADDRESS1": "愛知県名古屋市千種区内山1-20-15"}, "geometry": { "type": "Point", "coordinates": [136.93559,35.17257] } },
{"type": "Feature", "id": 0, "properties": { "TYPE":"Evacuation Shelter", "NAME":"大和小学校", "TEL": null, "ADDRESS1": "愛知県名古屋市千種区松軒1-4-9"}, "geometry": { "type": "Point", "coordinates": [136.93896,35.17908] } },
{"type": "Feature", "id": 0, "properties": { "TYPE":"Evacuation Shelter", "NAME":"振甫中学校", "TEL": null, "ADDRESS1": "愛知県名古屋市千種区北千種1-7-1"}, "geometry": { "type": "Point", "coordinates": [136.94322,35.1805] } },
{"type": "Feature", "id": 0, "properties": { "TYPE":"Evacuation Shelter", "NAME":"大和コミュニティセンター", "TEL": null, "ADDRESS1": "愛知県名古屋市千種区松軒2-12-3"}, "geometry": { "type": "Point", "coordinates": [136.94183,35.17801] } },
{"type": "Feature", "id": 0, "properties": { "TYPE":"Evacuation Shelter", "NAME":"上野小学校", "TEL": null, "ADDRESS1": "愛知県名古屋市千種区上野2-6-1"}, "geometry": { "type": "Point", "coordinates": [136.95259,35.18028] } },
{"type": "Feature", "id": 0, "properties": { "TYPE":"Evacuation Shelter", "NAME":"愛知工業大学名電高校北側校舎", "TEL": null, "ADDRESS1": "愛知県名古屋市千種区北千種3-4-35"}, "geometry": { "type": "Point", "coordinates": [136.94884,35.17861] } },
{"type": "Feature", "id": 0, "properties": { "TYPE":"Evacuation Shelter", "NAME":"市立大学北千種キャンパス", "TEL": null, "ADDRESS1": "愛知県名古屋市千種区北千種2-1-10"}, "geometry": { "type": "Point", "coordinates": [136.9462,35.18116] } },
{"type": "Feature", "id": 0, "properties": { "TYPE":"Evacuation Shelter", "NAME":"上野コミュニティセンター", "TEL": null, "ADDRESS1": "愛知県名古屋市千種区上野1-10-17"}, "geometry": { "type": "Point", "coordinates": [136.95157,35.18104] } },
{"type": "Feature", "id": 0, "properties": { "TYPE":"Evacuation Shelter", "NAME":"高見小学校", "TEL": null, "ADDRESS1": "愛知県名古屋市千種区高見1-7-1"}, "geometry": { "type": "Point", "coordinates": [136.94887,35.17264] } },
{"type": "Feature", "id": 0, "properties": { "TYPE":"Evacuation Shelter", "NAME":"若水中学校", "TEL": null, "ADDRESS1": "愛知県名古屋市千種区若水2-6-1"}, "geometry": { "type": "Point", "coordinates": [136.94638,35.17421] } },
{"type": "Feature", "id": 0, "properties": { "TYPE":"Evacuation Shelter", "NAME":"千種生涯学習センター", "TEL": null, "ADDRESS1": "愛知県名古屋市千種区振甫町3-34"}, "geometry": { "type": "Point", "coordinates": [136.95306,35.17469] } },
{"type": "Feature", "id": 0, "properties": { "TYPE":"Evacuation Shelter", "NAME":"高見コミュニティセンター", "TEL": null, "ADDRESS1": "愛知県名古屋市千種区若水3-21-11"}, "geometry": { "type": "Point", "coordinates": [136.9485,35.17461] } },
{"type": "Feature", "id": 0, "properties": { "TYPE":"Evacuation Shelter", "NAME":"春岡小学校", "TEL": null, "ADDRESS1": "愛知県名古屋市千種区春岡2-5-38"}, "geometry": { "type": "Point", "coordinates": [136.94217,35.16407] } },
{"type": "Feature", "id": 0, "properties": { "TYPE":"Evacuation Shelter", "NAME":"春岡コミュニティセンター", "TEL": null, "ADDRESS1": "愛知県名古屋市千種区春岡2-5-44"}, "geometry": { "type": "Point", "coordinates": [136.94217,35.16407] } },
{"type": "Feature", "id": 0, "properties": { "TYPE":"Evacuation Shelter", "NAME":"田代小学校", "TEL": null, "ADDRESS1": "愛知県名古屋市千種区観月町2-41"}, "geometry": { "type": "Point", "coordinates": [136.95526,35.16445] } },
{"type": "Feature", "id": 0, "properties": { "TYPE":"Evacuation Shelter", "NAME":"城山中学校", "TEL": null, "ADDRESS1": "愛知県名古屋市千種区西崎町1-42"}, "geometry": { "type": "Point", "coordinates": [136.95898,35.16175] } },
{"type": "Feature", "id": 0, "properties": { "TYPE":"Evacuation Shelter", "NAME":"椙山女学園", "TEL": null, "ADDRESS1": "愛知県名古屋市千種区山添町2-2"}, "geometry": { "type": "Point", "coordinates": [136.9507,35.16506] } },
{"type": "Feature", "id": 0, "properties": { "TYPE":"Evacuation Shelter", "NAME":"田代コミュニティセンター", "TEL": null, "ADDRESS1": "愛知県名古屋市千種区観月町2-14"}, "geometry": { "type": "Point", "coordinates": [136.95613,35.16566] } },
{"type": "Feature", "id": 0, "properties": { "TYPE":"Evacuation Shelter", "NAME":"東山小学校", "TEL": null, "ADDRESS1": "愛知県名古屋市千種区橋本町3-20"}, "geometry": { "type": "Point", "coordinates": [136.96745,35.16412] } },
{"type": "Feature", "id": 0, "properties": { "TYPE":"Evacuation Shelter", "NAME":"東山コミュニティセンター", "TEL": null, "ADDRESS1": "愛知県名古屋市千種区橋本町2-37"}, "geometry": { "type": "Point", "coordinates": [136.96793,35.16454] } },
{"type": "Feature", "id": 0, "properties": { "TYPE":"Evacuation Shelter", "NAME":"愛知学院", "TEL": null, "ADDRESS1": "愛知県名古屋市千種区楠元町1-100"}, "geometry": { "type": "Point", "coordinates": [136.96149,35.16832] } },
{"type": "Feature", "id": 0, "properties": { "TYPE":"Evacuation Shelter", "NAME":"見付小学校", "TEL": null, "ADDRESS1": "愛知県名古屋市千種区見附町3-1-3"}, "geometry": { "type": "Point", "coordinates": [136.96082,35.15996] } },
{"type": "Feature", "id": 0, "properties": { "TYPE":"Evacuation Shelter", "NAME":"名大教育学部附属学校", "TEL": null, "ADDRESS1": "愛知県名古屋市千種区不老町"}, "geometry": { "type": "Point", "coordinates": [136.96465,35.1563] } },
{"type": "Feature", "id": 0, "properties": { "TYPE":"Evacuation Shelter", "NAME":"見付コミュニティセンター", "TEL": null, "ADDRESS1": "愛知県名古屋市千種区唐山町1-79-1"}, "geometry": { "type": "Point", "coordinates": [136.96873,35.15894] } },
{"type": "Feature", "id": 0, "properties": { "TYPE":"Evacuation Shelter", "NAME":"星ケ丘小学校", "TEL": null, "ADDRESS1": "愛知県名古屋市千種区星ケ丘1-4"}, "geometry": { "type": "Point", "coordinates": [136.98811,35.16349] } },
{"type": "Feature", "id": 0, "properties": { "TYPE":"Evacuation Shelter", "NAME":"東星中学校", "TEL": null, "ADDRESS1": "愛知県名古屋市千種区星ケ丘山手105"}, "geometry": { "type": "Point", "coordinates": [136.98201,35.16399] } },
{"type": "Feature", "id": 0, "properties": { "TYPE":"Evacuation Shelter", "NAME":"菊里高等学校", "TEL": null, "ADDRESS1": "愛知県名古屋市千種区星ケ丘元町13-7"}, "geometry": { "type": "Point", "coordinates": [136.98399,35.15945] } },
{"type": "Feature", "id": 0, "properties": { "TYPE":"Evacuation Shelter", "NAME":"愛知淑徳学園", "TEL": null, "ADDRESS1": "愛知県名古屋市千種区桜が丘23"}, "geometry": { "type": "Point", "coordinates": [136.98817,35.16461] } },
{"type": "Feature", "id": 0, "properties": { "TYPE":"Evacuation Shelter", "NAME":"千種スポーツセンター", "TEL": null, "ADDRESS1": "愛知県名古屋市千種区星ケ丘山手121"}, "geometry": { "type": "Point", "coordinates": [136.98201,35.16399] } },
{"type": "Feature", "id": 0, "properties": { "TYPE":"Evacuation Shelter", "NAME":"星ケ丘コミュニティセンター", "TEL": null, "ADDRESS1": "愛知県名古屋市千種区星ケ丘1-3"}, "geometry": { "type": "Point", "coordinates": [136.98811,35.16349] } },
{"type": "Feature", "id": 0, "properties": { "TYPE":"Evacuation Shelter", "NAME":"自由ケ丘小学校", "TEL": null, "ADDRESS1": "愛知県名古屋市千種区自由ケ丘2-15-24"}, "geometry": { "type": "Point", "coordinates": [136.96475,35.17268] } },
{"type": "Feature", "id": 0, "properties": { "TYPE":"Evacuation Shelter", "NAME":"千種台小学校", "TEL": null, "ADDRESS1": "愛知県名古屋市千種区自由ケ丘3-3-55"}, "geometry": { "type": "Point", "coordinates": [136.96892,35.17735] } },
{"type": "Feature", "id": 0, "properties": { "TYPE":"Evacuation Shelter", "NAME":"名古屋商業高等学校", "TEL": null, "ADDRESS1": "愛知県名古屋市千種区自由ケ丘2-11-48"}, "geometry": { "type": "Point", "coordinates": [136.96477,35.17429] } },
{"type": "Feature", "id": 0, "properties": { "TYPE":"Evacuation Shelter", "NAME":"自由ケ丘会館", "TEL": null, "ADDRESS1": "愛知県名古屋市千種区徳川山町5-3-12-1"}, "geometry": { "type": "Point", "coordinates": [136.96971,35.17406] } },
{"type": "Feature", "id": 0, "properties": { "TYPE":"Evacuation Shelter", "NAME":"富士見台会館", "TEL": null, "ADDRESS1": "愛知県名古屋市千種区希望ケ丘2-3-49"}, "geometry": { "type": "Point", "coordinates": [136.96992,35.17816] } },
{"type": "Feature", "id": 0, "properties": { "TYPE":"Evacuation Shelter", "NAME":"宮根小学校", "TEL": null, "ADDRESS1": "愛知県名古屋市千種区宮根台2-10-19"}, "geometry": { "type": "Point", "coordinates": [136.97955,35.18364] } },
{"type": "Feature", "id": 0, "properties": { "TYPE":"Evacuation Shelter", "NAME":"猪子石中学校", "TEL": null, "ADDRESS1": "愛知県名古屋市千種区千代が丘2-5"}, "geometry": { "type": "Point", "coordinates": [136.98378,35.18207] } },
{"type": "Feature", "id": 0, "properties": { "TYPE":"Evacuation Shelter", "NAME":"千代田橋小学校", "TEL": null, "ADDRESS1": "愛知県名古屋市千種区千代田橋2-3-7"}, "geometry": { "type": "Point", "coordinates": [136.97273,35.18705] } },
{"type": "Feature", "id": 0, "properties": { "TYPE":"Evacuation Shelter", "NAME":"千種中学校", "TEL": null, "ADDRESS1": "愛知県名古屋市千種区千代田橋1-1-12"}, "geometry": { "type": "Point", "coordinates": [136.96526,35.1878] } },
{"type": "Feature", "id": 0, "properties": { "TYPE":"Evacuation Shelter", "NAME":"香流橋地域センター", "TEL": null, "ADDRESS1": "愛知県名古屋市千種区香流橋1-2-35"}, "geometry": { "type": "Point", "coordinates": [136.9792,35.19063] } }
]}
